$GPGGA,090000.00,3629.01079615,N,13853.80092686,E,1,05,2.87,160.00,M,-21.3213,M,,*73
$GPGGA,090000.05,3629.01079202,N,13853.80092573,E,1,05,2.87,160.00,M,-21.3213,M,,*7D
$GPGGA,090000.10,3629.01078402,N,13853.80092355,E,1,05,2.87,160.00,M,-21.3213,M,,*7C
$GPGGA,090000.15,3629.01082425,N,13853.80093453,E,1,05,2.87,160.00,M,-21.3213,M,,*79
$GPGGA,090000.20,3629.01080458,N,13853.80092916,E,1,05,2.87,160.00,M,-21.3213,M,,*7A
$GPGGA,090000.25,3629.01083108,N,13853.80093639,E,1,05,2.87,160.00,M,-21.3213,M,,*7F
$GPGGA,090000.30,3629.01090401,N,13853.80095629,E,1,05,2.87,160.00,M,-21.3213,M,,*72
$GPGGA,090000.35,3629.01091261,N,13853.80095864,E,1,05,2.87,160.00,M,-21.3213,M,,*71
$GPGGA,090000.40,3629.01096655,N,13853.80097336,E,1,05,2.87,160.00,M,-21.3213,M,,*79
$GPGGA,090000.45,3629.01106766,N,13853.80100095,E,1,05,2.87,160.00,M,-21.3213,M,,*70
$GPGGA,090000.50,3629.01116012,N,13853.80102619,E,1,05,2.87,160.00,M,-21.3213,M,,*71
$GPGGA,090000.55,3629.01124382,N,13853.80104903,E,1,05,2.87,160.00,M,-21.3213,M,,*7D
$GPGGA,090000.60,3629.01138114,N,13853.80108651,E,1,05,2.87,160.00,M,-21.3213,M,,*7F
$GPGGA,090000.65,3629.01144821,N,13853.80110481,E,1,05,2.87,160.00,M,-21.3213,M,,*78
$GPGGA,090000.70,3629.01163745,N,13853.80115646,E,1,05,2.87,160.00,M,-21.3213,M,,*78
$GPGGA,090000.75,3629.01175589,N,13853.80118879,E,1,05,2.87,160.00,M,-21.3213,M,,*77
$GPGGA,090000.80,3629.01193685,N,13853.80123819,E,1,05,2.87,160.00,M,-21.3213,M,,*74
$GPGGA,090000.85,3629.01211398,N,13853.80128654,E,1,05,2.87,160.00,M,-21.3213,M,,*7D
$GPGGA,090000.90,3629.01228682,N,13853.80133373,E,1,05,2.87,160.00,M,-21.3213,M,,*77
$GPGGA,090000.95,3629.01245497,N,13853.80137964,E,1,05,2.87,160.00,M,-21.3213,M,,*77
$GPGGA,090001.00,3629.01269427,N,13853.80144499,E,1,05,2.87,160.00,M,-21.3213,M,,*74
$GPGGA,090001.05,3629.01293126,N,13853.80150971,E,1,05,2.87,160.00,M,-21.3213,M,,*7E
$GPGGA,090001.10,3629.01316531,N,13853.80157364,E,1,05,2.87,160.00,M,-21.3213,M,,*7D
$GPGGA,090001.15,3629.01339583,N,13853.80163661,E,1,05,2.87,160.00,M,-21.3213,M,,*7B
$GPGGA,090001.20,3629.01370509,N,13853.80172111,E,1,05,2.87,160.00,M,-21.3213,M,,*72
$GPGGA,090001.25,3629.01392828,N,13853.80178211,E,1,05,2.87,160.00,M,-21.3213,M,,*7C
$GPGGA,090001.30,3629.01423194,N,13853.80186511,E,1,05,2.87,160.00,M,-21.3213,M,,*7D
$GPGGA,090001.35,3629.01453252,N,13853.80194729,E,1,05,2.87,160.00,M,-21.3213,M,,*7C
$GPGGA,090001.40,3629.01491781,N,13853.80205266,E,1,05,2.87,160.00,M,-21.3213,M,,*7E
$GPGGA,090001.45,3629.01521145,N,13853.80213300,E,1,05,2.87,160.00,M,-21.3213,M,,*79
$GPGGA,090001.50,3629.01559093,N,13853.80223685,E,1,05,2.87,160.00,M,-21.3213,M,,*73
$GPGGA,090001.55,3629.01587498,N,13853.80231461,E,1,05,2.87,160.00,M,-21.3213,M,,*71
$GPGGA,090001.60,3629.01624583,N,13853.80241617,E,1,05,2.87,160.00,M,-21.3213,M,,*72
$GPGGA,090001.65,3629.01661194,N,13853.80251648,E,1,05,2.87,160.00,M,-21.3213,M,,*7F
$GPGGA,090001.70,3629.01706762,N,13853.80264140,E,1,05,2.87,160.00,M,-21.3213,M,,*7D
$GPGGA,090001.75,3629.01742320,N,13853.80273894,E,1,05,2.87,160.00,M,-21.3213,M,,*7C
$GPGGA,090001.80,3629.01786885,N,13853.80286125,E,1,05,2.87,160.00,M,-21.3213,M,,*73
$GPGGA,090001.85,3629.01830892,N,13853.80298213,E,1,05,2.87,160.00,M,-21.3213,M,,*7B
$GPGGA,090001.90,3629.01874275,N,13853.80310138,E,1,05,2.87,160.00,M,-21.3213,M,,*77
$GPGGA,090001.95,3629.01916978,N,13853.80321887,E,1,05,2.87,160.00,M,-21.3213,M,,*7E
$GPGGA,090002.00,3629.01968987,N,13853.80336210,E,1,05,2.87,160.00,M,-21.3213,M,,*7A
$GPGGA,090002.05,3629.02020232,N,13853.80350340,E,1,05,2.87,160.00,M,-21.3213,M,,*78
$GPGGA,090002.10,3629.02070746,N,13853.80364287,E,1,05,2.87,160.00,M,-21.3213,M,,*72
$GPGGA,090002.15,3629.02120474,N,13853.80378037,E,1,05,2.87,160.00,M,-21.3213,M,,*75
$GPGGA,090002.20,3629.02169366,N,13853.80391576,E,1,05,2.87,160.00,M,-21.3213,M,,*7D
$GPGGA,090002.25,3629.02227571,N,13853.80407725,E,1,05,2.87,160.00,M,-21.3213,M,,*7D
$GPGGA,090002.30,3629.02274696,N,13853.80420825,E,1,05,2.87,160.00,M,-21.3213,M,,*7F
$GPGGA,090002.35,3629.02331122,N,13853.80436546,E,1,05,2.87,160.00,M,-21.3213,M,,*7D
$GPGGA,090002.40,3629.02396905,N,13853.80454926,E,1,05,2.87,160.00,M,-21.3213,M,,*71
$GPGGA,090002.45,3629.02451444,N,13853.80470212,E,1,05,2.87,160.00,M,-21.3213,M,,*7A
$GPGGA,090002.50,3629.02515313,N,13853.80488176,E,1,05,2.87,160.00,M,-21.3213,M,,*7C
$GPGGA,090002.55,3629.02578177,N,13853.80505931,E,1,05,2.87,160.00,M,-21.3213,M,,*7D
$GPGGA,090002.60,3629.02639999,N,13853.80523472,E,1,05,2.87,160.00,M,-21.3213,M,,*7B
$GPGGA,090002.65,3629.02700746,N,13853.80540796,E,1,05,2.87,160.00,M,-21.3213,M,,*75
$GPGGA,090002.70,3629.02770802,N,13853.80560895,E,1,05,2.87,160.00,M,-21.3213,M,,*77
$GPGGA,090002.75,3629.02829325,N,13853.80577799,E,1,05,2.87,160.00,M,-21.3213,M,,*7A
$GPGGA,090002.80,3629.02897178,N,13853.80597544,E,1,05,2.87,160.00,M,-21.3213,M,,*73
$GPGGA,090002.85,3629.02964041,N,13853.80617175,E,1,05,2.87,160.00,M,-21.3213,M,,*7D
$GPGGA,090002.90,3629.03040459,N,13853.80639853,E,1,05,2.87,160.00,M,-21.3213,M,,*7B
$GPGGA,090002.95,3629.03105655,N,13853.80659434,E,1,05,2.87,160.00,M,-21.3213,M,,*7B
$GPGGA,090003.00,3629.03180613,N,13853.80682253,E,1,05,2.87,160.00,M,-21.3213,M,,*78
$GPGGA,090003.05,3629.03254994,N,13853.80705269,E,1,05,2.87,160.00,M,-21.3213,M,,*70
$GPGGA,090003.10,3629.03328899,N,13853.80728562,E,1,05,2.87,160.00,M,-21.3213,M,,*71
$GPGGA,090003.15,3629.03392010,N,13853.80748839,E,1,05,2.87,160.00,M,-21.3213,M,,*79
$GPGGA,090003.20,3629.03465279,N,13853.80772891,E,1,05,2.87,160.00,M,-21.3213,M,,*76
$GPGGA,090003.25,3629.03538378,N,13853.80797511,E,1,05,2.87,160.00,M,-21.3213,M,,*74
$GPGGA,090003.30,3629.03611374,N,13853.80822725,E,1,05,2.87,160.00,M,-21.3213,M,,*70
$GPGGA,090003.35,3629.03684271,N,13853.80848498,E,1,05,2.87,160.00,M,-21.3213,M,,*74
$GPGGA,090003.40,3629.03757068,N,13853.80874801,E,1,05,2.87,160.00,M,-21.3213,M,,*70
$GPGGA,090003.45,3629.03829760,N,13853.80901617,E,1,05,2.87,160.00,M,-21.3213,M,,*76
$GPGGA,090003.50,3629.03902341,N,13853.80928939,E,1,05,2.87,160.00,M,-21.3213,M,,*75
$GPGGA,090003.55,3629.03974801,N,13853.80956768,E,1,05,2.87,160.00,M,-21.3213,M,,*7D
$GPGGA,090003.60,3629.04047129,N,13853.80985119,E,1,05,2.87,160.00,M,-21.3213,M,,*78
$GPGGA,090003.65,3629.04119312,N,13853.81014014,E,1,05,2.87,160.00,M,-21.3213,M,,*71
$GPGGA,090003.70,3629.04191334,N,13853.81043487,E,1,05,2.87,160.00,M,-21.3213,M,,*7D
$GPGGA,090003.75,3629.04263176,N,13853.81073585,E,1,05,2.87,160.00,M,-21.3213,M,,*72
$GPGGA,090003.80,3629.04334816,N,13853.81104366,E,1,05,2.87,160.00,M,-21.3213,M,,*7E
$GPGGA,090003.85,3629.04396093,N,13853.81131371,E,1,05,2.87,160.00,M,-21.3213,M,,*76
$GPGGA,090003.90,3629.04467293,N,13853.81163629,E,1,05,2.87,160.00,M,-21.3213,M,,*76
$GPGGA,090003.95,3629.04538221,N,13853.81196806,E,1,05,2.87,160.00,M,-21.3213,M,,*78
$GPGGA,090004.00,3629.04608878,N,13853.81230888,E,1,05,2.87,160.00,M,-21.3213,M,,*7C
$GPGGA,090004.05,3629.04679277,N,13853.81265819,E,1,05,2.87,160.00,M,-21.3213,M,,*72
$GPGGA,090004.10,3629.04749421,N,13853.81301561,E,1,05,2.87,160.00,M,-21.3213,M,,*70
$GPGGA,090004.15,3629.04819311,N,13853.81338091,E,1,05,2.87,160.00,M,-21.3213,M,,*7B
$GPGGA,090004.20,3629.04888939,N,13853.81375402,E,1,05,2.87,160.00,M,-21.3213,M,,*72
$GPGGA,090004.25,3629.04958296,N,13853.81413502,E,1,05,2.87,160.00,M,-21.3213,M,,*73
$GPGGA,090004.30,3629.05027365,N,13853.81452417,E,1,05,2.87,160.00,M,-21.3213,M,,*7A
$GPGGA,090004.35,3629.05096135,N,13853.81492162,E,1,05,2.87,160.00,M,-21.3213,M,,*79
$GPGGA,090004.40,3629.05164640,N,13853.81532657,E,1,05,2.87,160.00,M,-21.3213,M,,*78
$GPGGA,090004.45,3629.05232919,N,13853.81573805,E,1,05,2.87,160.00,M,-21.3213,M,,*72
$GPGGA,090004.50,3629.05301005,N,13853.81615523,E,1,05,2.87,160.00,M,-21.3213,M,,*79
$GPGGA,090004.55,3629.05359289,N,13853.81651714,E,1,05,2.87,160.00,M,-21.3213,M,,*71
$GPGGA,090004.60,3629.05427088,N,13853.81694304,E,1,05,2.87,160.00,M,-21.3213,M,,*76
$GPGGA,090004.65,3629.05494762,N,13853.81737276,E,1,05,2.87,160.00,M,-21.3213,M,,*74
$GPGGA,090004.70,3629.05562329,N,13853.81780583,E,1,05,2.87,160.00,M,-21.3213,M,,*72
$GPGGA,090004.75,3629.05629803,N,13853.81824179,E,1,05,2.87,160.00,M,-21.3213,M,,*78
$GPGGA,090004.80,3629.05697198,N,13853.81868028,E,1,05,2.87,160.00,M,-21.3213,M,,*71
$GPGGA,090004.85,3629.05764524,N,13853.81912097,E,1,05,2.87,160.00,M,-21.3213,M,,*72
$GPGGA,090004.90,3629.05831790,N,13853.81956356,E,1,05,2.87,160.00,M,-21.3213,M,,*7A
$GPGGA,090004.95,3629.05899005,N,13853.82000781,E,1,05,2.87,160.00,M,-21.3213,M,,*71
$GPGGA,090005.00,3629.05966176,N,13853.82045351,E,1,05,2.87,160.00,M,-21.3213,M,,*70
$GPGGA,090005.05,3629.06023791,N,13853.82083700,E,1,05,2.87,160.00,M,-21.3213,M,,*7B
$GPGGA,090005.10,3629.06090896,N,13853.82128490,E,1,05,2.87,160.00,M,-21.3213,M,,*75
$GPGGA,090005.15,3629.06157971,N,13853.82173375,E,1,05,2.87,160.00,M,-21.3213,M,,*70
$GPGGA,090005.20,3629.06225020,N,13853.82218344,E,1,05,2.87,160.00,M,-21.3213,M,,*71
$GPGGA,090005.25,3629.06292048,N,13853.82263386,E,1,05,2.87,160.00,M,-21.3213,M,,*74
$GPGGA,090005.30,3629.06359056,N,13853.82308491,E,1,05,2.87,160.00,M,-21.3213,M,,*74
$GPGGA,090005.35,3629.06426048,N,13853.82353651,E,1,05,2.87,160.00,M,-21.3213,M,,*71
$GPGGA,090005.40,3629.06493025,N,13853.82398859,E,1,05,2.87,160.00,M,-21.3213,M,,*77
$GPGGA,090005.45,3629.06559990,N,13853.82444108,E,1,05,2.87,160.00,M,-21.3213,M,,*79
$GPGGA,090005.50,3629.06626944,N,13853.82489393,E,1,05,2.87,160.00,M,-21.3213,M,,*7E
$GPGGA,090005.55,3629.06684401,N,13853.82528285,E,1,05,2.87,160.00,M,-21.3213,M,,*73
$GPGGA,090005.60,3629.06751339,N,13853.82573625,E,1,05,2.87,160.00,M,-21.3213,M,,*70
$GPGGA,090005.65,3629.06818138,N,13853.82618900,E,1,05,2.87,160.00,M,-21.3213,M,,*72
$GPGGA,090005.70,3629.06885062,N,13853.82664286,E,1,05,2.87,160.00,M,-21.3213,M,,*72
$GPGGA,090005.75,3629.06951981,N,13853.82709689,E,1,05,2.87,160.00,M,-21.3213,M,,*7A
$GPGGA,090005.80,3629.07018895,N,13853.82755109,E,1,05,2.87,160.00,M,-21.3213,M,,*77
$GPGGA,090005.85,3629.07085804,N,13853.82800543,E,1,05,2.87,160.00,M,-21.3213,M,,*7B
$GPGGA,090005.90,3629.07152711,N,13853.82845990,E,1,05,2.87,160.00,M,-21.3213,M,,*7C
$GPGGA,090005.95,3629.07219613,N,13853.82891447,E,1,05,2.87,160.00,M,-21.3213,M,,*78
$GPGGA,090006.00,3629.07277033,N,13853.82930470,E,1,05,2.87,160.00,M,-21.3213,M,,*75
$GPGGA,090006.05,3629.07343930,N,13853.82975944,E,1,05,2.87,160.00,M,-21.3213,M,,*77
$GPGGA,090006.10,3629.07410826,N,13853.83021426,E,1,05,2.87,160.00,M,-21.3213,M,,*74
$GPGGA,090006.15,3629.07477719,N,13853.83066916,E,1,05,2.87,160.00,M,-21.3213,M,,*7E
$GPGGA,090006.20,3629.07544611,N,13853.83112411,E,1,05,2.87,160.00,M,-21.3213,M,,*78
$GPGGA,090006.25,3629.07611500,N,13853.83157913,E,1,05,2.87,160.00,M,-21.3213,M,,*73
$GPGGA,090006.30,3629.07678388,N,13853.83203421,E,1,05,2.87,160.00,M,-21.3213,M,,*70
$GPGGA,090006.35,3629.07745275,N,13853.83248934,E,1,05,2.87,160.00,M,-21.3213,M,,*7F
$GPGGA,090006.40,3629.07812160,N,13853.83294452,E,1,05,2.87,160.00,M,-21.3213,M,,*7B
$GPGGA,090006.45,3629.07869565,N,13853.83333524,E,1,05,2.87,160.00,M,-21.3213,M,,*7F
$GPGGA,090006.50,3629.07936447,N,13853.83379052,E,1,05,2.87,160.00,M,-21.3213,M,,*7B
$GPGGA,090006.55,3629.08003327,N,13853.83424586,E,1,05,2.87,160.00,M,-21.3213,M,,*7C
$GPGGA,090006.60,3629.08070206,N,13853.83470125,E,1,05,2.87,160.00,M,-21.3213,M,,*70
$GPGGA,090006.65,3629.08137083,N,13853.83515671,E,1,05,2.87,160.00,M,-21.3213,M,,*7C
$GPGGA,090006.70,3629.08203958,N,13853.83561223,E,1,05,2.87,160.00,M,-21.3213,M,,*73
$GPGGA,090006.75,3629.08270831,N,13853.83606783,E,1,05,2.87,160.00,M,-21.3213,M,,*71
$GPGGA,090006.80,3629.08337701,N,13853.83652351,E,1,05,2.87,160.00,M,-21.3213,M,,*7F
$GPGGA,090006.85,3629.08404569,N,13853.83697928,E,1,05,2.87,160.00,M,-21.3213,M,,*7C
$GPGGA,090006.90,3629.08461959,N,13853.83737055,E,1,05,2.87,160.00,M,-21.3213,M,,*7C
$GPGGA,090006.95,3629.08528821,N,13853.83782653,E,1,05,2.87,160.00,M,-21.3213,M,,*75
$GPGGA,090007.00,3629.08595679,N,13853.83828264,E,1,05,2.87,160.00,M,-21.3213,M,,*72
$GPGGA,090007.05,3629.08662533,N,13853.83873890,E,1,05,2.87,160.00,M,-21.3213,M,,*7E
$GPGGA,090007.10,3629.08729382,N,13853.83919532,E,1,05,2.87,160.00,M,-21.3213,M,,*70
$GPGGA,090007.15,3629.08796225,N,13853.83965195,E,1,05,2.87,160.00,M,-21.3213,M,,*7F
$GPGGA,090007.20,3629.08863062,N,13853.84010880,E,1,05,2.87,160.00,M,-21.3213,M,,*7C
$GPGGA,090007.25,3629.08929892,N,13853.84056591,E,1,05,2.87,160.00,M,-21.3213,M,,*7E
$GPGGA,090007.30,3629.08987246,N,13853.84095849,E,1,05,2.87,160.00,M,-21.3213,M,,*7A
$GPGGA,090007.35,3629.09054059,N,13853.84141618,E,1,05,2.87,160.00,M,-21.3213,M,,*77
$GPGGA,090007.40,3629.09120861,N,13853.84187427,E,1,05,2.87,160.00,M,-21.3213,M,,*70
$GPGGA,090007.45,3629.09187651,N,13853.84233279,E,1,05,2.87,160.00,M,-21.3213,M,,*74
$GPGGA,090007.50,3629.09254427,N,13853.84279178,E,1,05,2.87,160.00,M,-21.3213,M,,*72
$GPGGA,090007.55,3629.09321192,N,13853.84325117,E,1,05,2.87,160.00,M,-21.3213,M,,*7E
$GPGGA,090007.60,3629.09387946,N,13853.84371091,E,1,05,2.87,160.00,M,-21.3213,M,,*7B
$GPGGA,090007.65,3629.09454692,N,13853.84417096,E,1,05,2.87,160.00,M,-21.3213,M,,*71
$GPGGA,090007.70,3629.09521431,N,13853.84463127,E,1,05,2.87,160.00,M,-21.3213,M,,*75
$GPGGA,090007.75,3629.09578711,N,13853.84502657,E,1,05,2.87,160.00,M,-21.3213,M,,*7B
$GPGGA,090007.80,3629.09645439,N,13853.84548729,E,1,05,2.87,160.00,M,-21.3213,M,,*73
$GPGGA,090007.85,3629.09712161,N,13853.84594818,E,1,05,2.87,160.00,M,-21.3213,M,,*71
$GPGGA,090007.90,3629.09778879,N,13853.84640922,E,1,05,2.87,160.00,M,-21.3213,M,,*7B
$GPGGA,090007.95,3629.09845593,N,13853.84687039,E,1,05,2.87,160.00,M,-21.3213,M,,*7E
$GPGGA,090008.00,3629.09912304,N,13853.84733168,E,1,05,2.87,160.00,M,-21.3213,M,,*7D
$GPGGA,090008.05,3629.09979012,N,13853.84779306,E,1,05,2.87,160.00,M,-21.3213,M,,*75
$GPGGA,090008.10,3629.10045718,N,13853.84825452,E,1,05,2.87,160.00,M,-21.3213,M,,*72
$GPGGA,090008.15,3629.10102975,N,13853.84865068,E,1,05,2.87,160.00,M,-21.3213,M,,*79
$GPGGA,090008.20,3629.10169677,N,13853.84911226,E,1,05,2.87,160.00,M,-21.3213,M,,*75
$GPGGA,090008.25,3629.10236377,N,13853.84957390,E,1,05,2.87,160.00,M,-21.3213,M,,*72
$GPGGA,090008.30,3629.10303077,N,13853.85003557,E,1,05,2.87,160.00,M,-21.3213,M,,*76
$GPGGA,090008.35,3629.10369775,N,13853.85049728,E,1,05,2.87,160.00,M,-21.3213,M,,*7E
$GPGGA,090008.40,3629.10436472,N,13853.85095902,E,1,05,2.87,160.00,M,-21.3213,M,,*72
$GPGGA,090008.45,3629.10503168,N,13853.85142077,E,1,05,2.87,160.00,M,-21.3213,M,,*7E
$GPGGA,090008.50,3629.10569863,N,13853.85188253,E,1,05,2.87,160.00,M,-21.3213,M,,*76
$GPGGA,090008.55,3629.10627113,N,13853.85227891,E,1,05,2.87,160.00,M,-21.3213,M,,*76
$GPGGA,090008.60,3629.10693807,N,13853.85274068,E,1,05,2.87,160.00,M,-21.3213,M,,*7B
$GPGGA,090008.65,3629.10760501,N,13853.85320245,E,1,05,2.87,160.00,M,-21.3213,M,,*75
$GPGGA,090008.70,3629.10827195,N,13853.85366420,E,1,05,2.87,160.00,M,-21.3213,M,,*73
$GPGGA,090008.75,3629.10893889,N,13853.85412594,E,1,05,2.87,160.00,M,-21.3213,M,,*77
$GPGGA,090008.80,3629.10960582,N,13853.85458765,E,1,05,2.87,160.00,M,-21.3213,M,,*74
$GPGGA,090008.85,3629.11027276,N,13853.85504934,E,1,05,2.87,160.00,M,-21.3213,M,,*74
$GPGGA,090008.90,3629.11093969,N,13853.85551098,E,1,05,2.87,160.00,M,-21.3213,M,,*75
$GPGGA,090008.95,3629.11151217,N,13853.85590720,E,1,05,2.87,160.00,M,-21.3213,M,,*74
$GPGGA,090009.00,3629.11217911,N,13853.85636874,E,1,05,2.87,160.00,M,-21.3213,M,,*74
$GPGGA,090009.05,3629.11284605,N,13853.85683021,E,1,05,2.87,160.00,M,-21.3213,M,,*77
$GPGGA,090009.10,3629.11351300,N,13853.85729161,E,1,05,2.87,160.00,M,-21.3213,M,,*7E
$GPGGA,090009.15,3629.11417995,N,13853.85775291,E,1,05,2.87,160.00,M,-21.3213,M,,*7D
$GPGGA,090009.20,3629.11484691,N,13853.85821410,E,1,05,2.87,160.00,M,-21.3213,M,,*7B
$GPGGA,090009.25,3629.11551388,N,13853.85867516,E,1,05,2.87,160.00,M,-21.3213,M,,*7F
$GPGGA,090009.30,3629.11618085,N,13853.85913607,E,1,05,2.87,160.00,M,-21.3213,M,,*7A
$GPGGA,090009.35,3629.11684784,N,13853.85959682,E,1,05,2.87,160.00,M,-21.3213,M,,*7F
$GPGGA,090009.40,3629.11742035,N,13853.85999213,E,1,05,2.87,160.00,M,-21.3213,M,,*7B
$GPGGA,090009.45,3629.11808736,N,13853.86045248,E,1,05,2.87,160.00,M,-21.3213,M,,*7E
$GPGGA,090009.50,3629.11875439,N,13853.86091257,E,1,05,2.87,160.00,M,-21.3213,M,,*7B
$GPGGA,090009.55,3629.11942144,N,13853.86137236,E,1,05,2.87,160.00,M,-21.3213,M,,*7E
$GPGGA,090009.60,3629.12008851,N,13853.86183180,E,1,05,2.87,160.00,M,-21.3213,M,,*70
$GPGGA,090009.65,3629.12075561,N,13853.86229085,E,1,05,2.87,160.00,M,-21.3213,M,,*76
$GPGGA,090009.70,3629.12142274,N,13853.86274944,E,1,05,2.87,160.00,M,-21.3213,M,,*78
$GPGGA,090009.75,3629.12208991,N,13853.86320750,E,1,05,2.87,160.00,M,-21.3213,M,,*7B
$GPGGA,090009.80,3629.12275712,N,13853.86366495,E,1,05,2.87,160.00,M,-21.3213,M,,*76
$GPGGA,090009.85,3629.12332977,N,13853.86405698,E,1,05,2.87,160.00,M,-21.3213,M,,*71
$GPGGA,090009.90,3629.12399707,N,13853.86451304,E,1,05,2.87,160.00,M,-21.3213,M,,*7C
$GPGGA,090009.95,3629.12466443,N,13853.86496818,E,1,05,2.87,160.00,M,-21.3213,M,,*70
$GPGGA,090010.00,3629.12533187,N,13853.86542226,E,1,05,2.87,160.00,M,-21.3213,M,,*77
$GPGGA,090010.05,3629.12599940,N,13853.86587514,E,1,05,2.87,160.00,M,-21.3213,M,,*7E
$GPGGA,090010.10,3629.12666707,N,13853.86632666,E,1,05,2.87,160.00,M,-21.3213,M,,*7F
$GPGGA,090010.15,3629.12733555,N,13853.86677704,E,1,05,2.87,160.00,M,-21.3213,M,,*7A
$GPGGA,090010.20,3629.12800603,N,13853.86722682,E,1,05,2.87,160.00,M,-21.3213,M,,*7D
$GPGGA,090010.25,3629.12858473,N,13853.86761324,E,1,05,2.87,160.00,M,-21.3213,M,,*7E
$GPGGA,090010.30,3629.12926272,N,13853.86806354,E,1,05,2.87,160.00,M,-21.3213,M,,*7C
$GPGGA,090010.35,3629.12994632,N,13853.86851455,E,1,05,2.87,160.00,M,-21.3213,M,,*74
$GPGGA,090010.40,3629.13054156,N,13853.86890444,E,1,05,2.87,160.00,M,-21.3213,M,,*7A
$GPGGA,090010.45,3629.13124003,N,13853.86935810,E,1,05,2.87,160.00,M,-21.3213,M,,*7B
$GPGGA,090010.50,3629.13185244,N,13853.86975197,E,1,05,2.87,160.00,M,-21.3213,M,,*77
$GPGGA,090010.55,3629.13247529,N,13853.87014831,E,1,05,2.87,160.00,M,-21.3213,M,,*79
$GPGGA,090010.60,3629.13310988,N,13853.87054711,E,1,05,2.87,160.00,M,-21.3213,M,,*72
$GPGGA,090010.65,3629.13366095,N,13853.87088879,E,1,05,2.87,160.00,M,-21.3213,M,,*73
$GPGGA,090010.70,3629.13422425,N,13853.87123306,E,1,05,2.87,160.00,M,-21.3213,M,,*7C
$GPGGA,090010.75,3629.13479996,N,13853.87157908,E,1,05,2.87,160.00,M,-21.3213,M,,*75
$GPGGA,090010.80,3629.13538827,N,13853.87192583,E,1,05,2.87,160.00,M,-21.3213,M,,*76
$GPGGA,090010.85,3629.13598881,N,13853.87227180,E,1,05,2.87,160.00,M,-21.3213,M,,*7F
$GPGGA,090010.90,3629.13650354,N,13853.87256116,E,1,05,2.87,160.00,M,-21.3213,M,,*76
$GPGGA,090010.95,3629.13702809,N,13853.87284850,E,1,05,2.87,160.00,M,-21.3213,M,,*72
$GPGGA,090011.00,3629.13756152,N,13853.87313207,E,1,05,2.87,160.00,M,-21.3213,M,,*7E
$GPGGA,090011.05,3629.13810290,N,13853.87341005,E,1,05,2.87,160.00,M,-21.3213,M,,*7C
$GPGGA,090011.10,3629.13865136,N,13853.87368050,E,1,05,2.87,160.00,M,-21.3213,M,,*7E
$GPGGA,090011.15,3629.13920605,N,13853.87394145,E,1,05,2.87,160.00,M,-21.3213,M,,*7A
$GPGGA,090011.20,3629.13976616,N,13853.87419080,E,1,05,2.87,160.00,M,-21.3213,M,,*77
$GPGGA,090011.25,3629.14023067,N,13853.87438579,E,1,05,2.87,160.00,M,-21.3213,M,,*7C
$GPGGA,090011.30,3629.14057643,N,13853.87452342,E,1,05,2.87,160.00,M,-21.3213,M,,*79
$GPGGA,090011.35,3629.14104555,N,13853.87469948,E,1,05,2.87,160.00,M,-21.3213,M,,*77
$GPGGA,090011.40,3629.14161866,N,13853.87489830,E,1,05,2.87,160.00,M,-21.3213,M,,*7B
$GPGGA,090011.45,3629.14219377,N,13853.87508028,E,1,05,2.87,160.00,M,-21.3213,M,,*70
$GPGGA,090011.50,3629.14266997,N,13853.87521783,E,1,05,2.87,160.00,M,-21.3213,M,,*75
$GPGGA,090011.55,3629.14325120,N,13853.87536955,E,1,05,2.87,160.00,M,-21.3213,M,,*71
$GPGGA,090011.60,3629.14369509,N,13853.87547335,E,1,05,2.87,160.00,M,-21.3213,M,,*7A
$GPGGA,090011.65,3629.14417664,N,13853.87557409,E,1,05,2.87,160.00,M,-21.3213,M,,*70
$GPGGA,090011.70,3629.14476406,N,13853.87568129,E,1,05,2.87,160.00,M,-21.3213,M,,*7E
$GPGGA,090011.75,3629.14535240,N,13853.87577248,E,1,05,2.87,160.00,M,-21.3213,M,,*73
$GPGGA,090011.80,3629.14583875,N,13853.87583633,E,1,05,2.87,160.00,M,-21.3213,M,,*7B
$GPGGA,090011.85,3629.14643132,N,13853.87590064,E,1,05,2.87,160.00,M,-21.3213,M,,*7D
$GPGGA,090011.90,3629.14702522,N,13853.87595075,E,1,05,2.87,160.00,M,-21.3213,M,,*7D
$GPGGA,090011.95,3629.14762019,N,13853.87598690,E,1,05,2.87,160.00,M,-21.3213,M,,*73
$GPGGA,090012.00,3629.14811050,N,13853.87600637,E,1,05,2.87,160.00,M,-21.3213,M,,*75
$GPGGA,090012.05,3629.14870697,N,13853.87601809,E,1,05,2.87,160.00,M,-21.3213,M,,*78
$GPGGA,090012.10,3629.14930495,N,13853.87601723,E,1,05,2.87,160.00,M,-21.3213,M,,*7E
$GPGGA,090012.15,3629.14979994,N,13853.87600725,E,1,05,2.87,160.00,M,-21.3213,M,,*7D
$GPGGA,090012.20,3629.15040416,N,13853.87598394,E,1,05,2.87,160.00,M,-21.3213,M,,*72
$GPGGA,090012.25,3629.15090765,N,13853.87595523,E,1,05,2.87,160.00,M,-21.3213,M,,*7A
$GPGGA,090012.30,3629.15152242,N,13853.87590867,E,1,05,2.87,160.00,M,-21.3213,M,,*79
$GPGGA,090012.35,3629.15203875,N,13853.87585961,E,1,05,2.87,160.00,M,-21.3213,M,,*76
$GPGGA,090012.40,3629.15256199,N,13853.87580037,E,1,05,2.87,160.00,M,-21.3213,M,,*70
$GPGGA,090012.45,3629.15309068,N,13853.87573038,E,1,05,2.87,160.00,M,-21.3213,M,,*72
$GPGGA,090012.50,3629.15362326,N,13853.87564907,E,1,05,2.87,160.00,M,-21.3213,M,,*71
$GPGGA,090012.55,3629.15405391,N,13853.87557494,E,1,05,2.87,160.00,M,-21.3213,M,,*79
$GPGGA,090012.60,3629.15458998,N,13853.87547151,E,1,05,2.87,160.00,M,-21.3213,M,,*79
$GPGGA,090012.65,3629.15513340,N,13853.87535312,E,1,05,2.87,160.00,M,-21.3213,M,,*7D
$GPGGA,090012.70,3629.15556366,N,13853.87524915,E,1,05,2.87,160.00,M,-21.3213,M,,*71
$GPGGA,090012.75,3629.15609545,N,13853.87510851,E,1,05,2.87,160.00,M,-21.3213,M,,*7C
$GPGGA,090012.80,3629.15662412,N,13853.87495595,E,1,05,2.87,160.00,M,-21.3213,M,,*71
$GPGGA,090012.85,3629.15704954,N,13853.87482423,E,1,05,2.87,160.00,M,-21.3213,M,,*70
$GPGGA,090012.90,3629.15757514,N,13853.87465077,E,1,05,2.87,160.00,M,-21.3213,M,,*76
$GPGGA,090012.95,3629.15809828,N,13853.87446654,E,1,05,2.87,160.00,M,-21.3213,M,,*73
$GPGGA,090013.00,3629.15851814,N,13853.87431036,E,1,05,2.87,160.00,M,-21.3213,M,,*7E
$GPGGA,090013.05,3629.15903636,N,13853.87410732,E,1,05,2.87,160.00,M,-21.3213,M,,*73
$GPGGA,090013.10,3629.15955154,N,13853.87389409,E,1,05,2.87,160.00,M,-21.3213,M,,*7B
$GPGGA,090013.15,3629.15996437,N,13853.87371480,E,1,05,2.87,160.00,M,-21.3213,M,,*77
$GPGGA,090013.20,3629.16030175,N,13853.87356254,E,1,05,2.87,160.00,M,-21.3213,M,,*7E
$GPGGA,090013.25,3629.16071020,N,13853.87337112,E,1,05,2.87,160.00,M,-21.3213,M,,*79
$GPGGA,090013.30,3629.16121355,N,13853.87312454,E,1,05,2.87,160.00,M,-21.3213,M,,*78
$GPGGA,090013.35,3629.16171204,N,13853.87286862,E,1,05,2.87,160.00,M,-21.3213,M,,*78
$GPGGA,090013.40,3629.16211134,N,13853.87265506,E,1,05,2.87,160.00,M,-21.3213,M,,*7D
$GPGGA,090013.45,3629.16260311,N,13853.87238123,E,1,05,2.87,160.00,M,-21.3213,M,,*70
$GPGGA,090013.50,3629.16309035,N,13853.87209772,E,1,05,2.87,160.00,M,-21.3213,M,,*7F
$GPGGA,090013.55,3629.16357278,N,13853.87180437,E,1,05,2.87,160.00,M,-21.3213,M,,*7A
$GPGGA,090013.60,3629.16395736,N,13853.87156092,E,1,05,2.87,160.00,M,-21.3213,M,,*7D
$GPGGA,090013.65,3629.16443017,N,13853.87124910,E,1,05,2.87,160.00,M,-21.3213,M,,*76
$GPGGA,090013.70,3629.16489719,N,13853.87092640,E,1,05,2.87,160.00,M,-21.3213,M,,*7B
$GPGGA,090013.75,3629.16535799,N,13853.87059223,E,1,05,2.87,160.00,M,-21.3213,M,,*76
$GPGGA,090013.80,3629.16572381,N,13853.87031459,E,1,05,2.87,160.00,M,-21.3213,M,,*77
$GPGGA,090013.85,3629.16617220,N,13853.86995765,E,1,05,2.87,160.00,M,-21.3213,M,,*72
$GPGGA,090013.90,3629.16654398,N,13853.86964622,E,1,05,2.87,160.00,M,-21.3213,M,,*7F
$GPGGA,090013.95,3629.16689384,N,13853.86933918,E,1,05,2.87,160.00,M,-21.3213,M,,*73
$GPGGA,090014.00,3629.16732152,N,13853.86894589,E,1,05,2.87,160.00,M,-21.3213,M,,*78
$GPGGA,090014.05,3629.16774021,N,13853.86854271,E,1,05,2.87,160.00,M,-21.3213,M,,*76
$GPGGA,090014.10,3629.16815132,N,13853.86813031,E,1,05,2.87,160.00,M,-21.3213,M,,*7C
$GPGGA,090014.15,3629.16855378,N,13853.86771166,E,1,05,2.87,160.00,M,-21.3213,M,,*79
$GPGGA,090014.20,3629.16894728,N,13853.86728894,E,1,05,2.87,160.00,M,-21.3213,M,,*7B
$GPGGA,090014.25,3629.16933144,N,13853.86686429,E,1,05,2.87,160.00,M,-21.3213,M,,*71
$GPGGA,090014.30,3629.16978327,N,13853.86635078,E,1,05,2.87,160.00,M,-21.3213,M,,*75
$GPGGA,090014.35,3629.17014690,N,13853.86592726,E,1,05,2.87,160.00,M,-21.3213,M,,*79
$GPGGA,090014.40,3629.17057603,N,13853.86541662,E,1,05,2.87,160.00,M,-21.3213,M,,*79
$GPGGA,090014.45,3629.17099309,N,13853.86490997,E,1,05,2.87,160.00,M,-21.3213,M,,*79
$GPGGA,090014.50,3629.17139851,N,13853.86440849,E,1,05,2.87,160.00,M,-21.3213,M,,*7F
$GPGGA,090014.55,3629.17186723,N,13853.86381868,E,1,05,2.87,160.00,M,-21.3213,M,,*7D
$GPGGA,090014.60,3629.17225031,N,13853.86332936,E,1,05,2.87,160.00,M,-21.3213,M,,*77
$GPGGA,090014.65,3629.17269666,N,13853.86275175,E,1,05,2.87,160.00,M,-21.3213,M,,*73
$GPGGA,090014.70,3629.17313223,N,13853.86218106,E,1,05,2.87,160.00,M,-21.3213,M,,*71
$GPGGA,090014.75,3629.17363033,N,13853.86152084,E,1,05,2.87,160.00,M,-21.3213,M,,*76
$GPGGA,090014.80,3629.17404506,N,13853.86096558,E,1,05,2.87,160.00,M,-21.3213,M,,*74
$GPGGA,090014.85,3629.17452246,N,13853.86032087,E,1,05,2.87,160.00,M,-21.3213,M,,*78
$GPGGA,090014.90,3629.17499050,N,13853.85968365,E,1,05,2.87,160.00,M,-21.3213,M,,*74
$GPGGA,090014.95,3629.17545032,N,13853.85905324,E,1,05,2.87,160.00,M,-21.3213,M,,*7B
$GPGGA,090015.00,3629.17597479,N,13853.85832952,E,1,05,2.87,160.00,M,-21.3213,M,,*7C
$GPGGA,090015.05,3629.17642119,N,13853.85771007,E,1,05,2.87,160.00,M,-21.3213,M,,*70
$GPGGA,090015.10,3629.17693399,N,13853.85699504,E,1,05,2.87,160.00,M,-21.3213,M,,*73
$GPGGA,090015.15,3629.17744243,N,13853.85628294,E,1,05,2.87,160.00,M,-21.3213,M,,*7F
$GPGGA,090015.20,3629.17794750,N,13853.85557283,E,1,05,2.87,160.00,M,-21.3213,M,,*7E
$GPGGA,090015.25,3629.17845018,N,13853.85486377,E,1,05,2.87,160.00,M,-21.3213,M,,*74
$GPGGA,090015.30,3629.17888033,N,13853.85425540,E,1,05,2.87,160.00,M,-21.3213,M,,*73
$GPGGA,090015.35,3629.17938105,N,13853.85354560,E,1,05,2.87,160.00,M,-21.3213,M,,*7B
$GPGGA,090015.40,3629.17988145,N,13853.85283473,E,1,05,2.87,160.00,M,-21.3213,M,,*7E
$GPGGA,090015.45,3629.18038158,N,13853.85212295,E,1,05,2.87,160.00,M,-21.3213,M,,*7C
$GPGGA,090015.50,3629.18088149,N,13853.85141038,E,1,05,2.87,160.00,M,-21.3213,M,,*73
$GPGGA,090015.55,3629.18138121,N,13853.85069713,E,1,05,2.87,160.00,M,-21.3213,M,,*77
$GPGGA,090015.60,3629.18188079,N,13853.84998331,E,1,05,2.87,160.00,M,-21.3213,M,,*74
$GPGGA,090015.65,3629.18238024,N,13853.84926901,E,1,05,2.87,160.00,M,-21.3213,M,,*7D
$GPGGA,090015.70,3629.18287961,N,13853.84855431,E,1,05,2.87,160.00,M,-21.3213,M,,*7E
$GPGGA,090015.75,3629.18330817,N,13853.84794061,E,1,05,2.87,160.00,M,-21.3213,M,,*75
$GPGGA,090015.80,3629.18380745,N,13853.84722534,E,1,05,2.87,160.00,M,-21.3213,M,,*74
$GPGGA,090015.85,3629.18430672,N,13853.84650986,E,1,05,2.87,160.00,M,-21.3213,M,,*79
$GPGGA,090015.90,3629.18480600,N,13853.84579423,E,1,05,2.87,160.00,M,-21.3213,M,,*79
$GPGGA,090015.95,3629.18530532,N,13853.84507851,E,1,05,2.87,160.00,M,-21.3213,M,,*74
$GPGGA,090016.00,3629.18580569,N,13853.84436133,E,1,05,2.87,160.00,M,-21.3213,M,,*70
$GPGGA,090016.05,3629.18630516,N,13853.84364557,E,1,05,2.87,160.00,M,-21.3213,M,,*73
$GPGGA,090016.10,3629.18680477,N,13853.84292987,E,1,05,2.87,160.00,M,-21.3213,M,,*73
$GPGGA,090016.15,3629.18723373,N,13853.84231562,E,1,05,2.87,160.00,M,-21.3213,M,,*73
$GPGGA,090016.20,3629.18773365,N,13853.84160018,E,1,05,2.87,160.00,M,-21.3213,M,,*78
$GPGGA,090016.25,3629.18823379,N,13853.84088495,E,1,05,2.87,160.00,M,-21.3213,M,,*7C
$GPGGA,090016.30,3629.18873421,N,13853.84017000,E,1,05,2.87,160.00,M,-21.3213,M,,*79
$GPGGA,090016.35,3629.18923494,N,13853.83945540,E,1,05,2.87,160.00,M,-21.3213,M,,*7E
$GPGGA,090016.40,3629.18973604,N,13853.83874122,E,1,05,2.87,160.00,M,-21.3213,M,,*71
$GPGGA,090016.45,3629.19023758,N,13853.83802756,E,1,05,2.87,160.00,M,-21.3213,M,,*75
$GPGGA,090016.50,3629.19073963,N,13853.83731449,E,1,05,2.87,160.00,M,-21.3213,M,,*70
$GPGGA,090016.55,3629.19124226,N,13853.83660214,E,1,05,2.87,160.00,M,-21.3213,M,,*77
$GPGGA,090016.60,3629.19167424,N,13853.83599134,E,1,05,2.87,160.00,M,-21.3213,M,,*76
$GPGGA,090016.65,3629.19217823,N,13853.83528063,E,1,05,2.87,160.00,M,-21.3213,M,,*75
$GPGGA,090016.70,3629.19268312,N,13853.83457101,E,1,05,2.87,160.00,M,-21.3213,M,,*7C
$GPGGA,090016.75,3629.19318905,N,13853.83386266,E,1,05,2.87,160.00,M,-21.3213,M,,*7A
$GPGGA,090016.80,3629.19369619,N,13853.83315577,E,1,05,2.87,160.00,M,-21.3213,M,,*79
$GPGGA,090016.85,3629.19420471,N,13853.83245057,E,1,05,2.87,160.00,M,-21.3213,M,,*79
$GPGGA,090016.90,3629.19471484,N,13853.83174731,E,1,05,2.87,160.00,M,-21.3213,M,,*75
$GPGGA,090016.95,3629.19522683,N,13853.83104629,E,1,05,2.87,160.00,M,-21.3213,M,,*7D
$GPGGA,090017.00,3629.19566797,N,13853.83044665,E,1,05,2.87,160.00,M,-21.3213,M,,*79
$GPGGA,090017.05,3629.19618423,N,13853.82975071,E,1,05,2.87,160.00,M,-21.3213,M,,*73
$GPGGA,090017.10,3629.19670330,N,13853.82905810,E,1,05,2.87,160.00,M,-21.3213,M,,*74
$GPGGA,090017.15,3629.19722565,N,13853.82836930,E,1,05,2.87,160.00,M,-21.3213,M,,*73
$GPGGA,090017.20,3629.19775179,N,13853.82768486,E,1,05,2.87,160.00,M,-21.3213,M,,*7A
$GPGGA,090017.25,3629.19828194,N,13853.82700497,E,1,05,2.87,160.00,M,-21.3213,M,,*75
$GPGGA,090017.30,3629.19881565,N,13853.82632906,E,1,05,2.87,160.00,M,-21.3213,M,,*7D
$GPGGA,090017.35,3629.19935245,N,13853.82565655,E,1,05,2.87,160.00,M,-21.3213,M,,*7B
$GPGGA,090017.40,3629.19989192,N,13853.82498694,E,1,05,2.87,160.00,M,-21.3213,M,,*79
$GPGGA,090017.45,3629.20035685,N,13853.82441413,E,1,05,2.87,160.00,M,-21.3213,M,,*70
$GPGGA,090017.50,3629.20090037,N,13853.82374875,E,1,05,2.87,160.00,M,-21.3213,M,,*79
$GPGGA,090017.55,3629.20144562,N,13853.82308514,E,1,05,2.87,160.00,M,-21.3213,M,,*70
$GPGGA,090017.60,3629.20199234,N,13853.82242300,E,1,05,2.87,160.00,M,-21.3213,M,,*7E
$GPGGA,090017.65,3629.20254030,N,13853.82176205,E,1,05,2.87,160.00,M,-21.3213,M,,*7F
$GPGGA,090017.70,3629.20308929,N,13853.82110203,E,1,05,2.87,160.00,M,-21.3213,M,,*74
$GPGGA,090017.75,3629.20363912,N,13853.82044271,E,1,05,2.87,160.00,M,-21.3213,M,,*71
$GPGGA,090017.80,3629.20418961,N,13853.81978388,E,1,05,2.87,160.00,M,-21.3213,M,,*76
$GPGGA,090017.85,3629.20466263,N,13853.81921848,E,1,05,2.87,160.00,M,-21.3213,M,,*78
$GPGGA,090017.90,3629.20521395,N,13853.81856000,E,1,05,2.87,160.00,M,-21.3213,M,,*73
$GPGGA,090017.95,3629.20576550,N,13853.81790142,E,1,05,2.87,160.00,M,-21.3213,M,,*79
$GPGGA,090018.00,3629.20631713,N,13853.81724254,E,1,05,2.87,160.00,M,-21.3213,M,,*74
$GPGGA,090018.05,3629.20686871,N,13853.81658316,E,1,05,2.87,160.00,M,-21.3213,M,,*7B
$GPGGA,090018.10,3629.20742009,N,13853.81592307,E,1,05,2.87,160.00,M,-21.3213,M,,*74
$GPGGA,090018.15,3629.20797114,N,13853.81526202,E,1,05,2.87,160.00,M,-21.3213,M,,*7F
$GPGGA,090018.20,3629.20844394,N,13853.81469342,E,1,05,2.87,160.00,M,-21.3213,M,,*7D
$GPGGA,090018.25,3629.20899401,N,13853.81402998,E,1,05,2.87,160.00,M,-21.3213,M,,*73
$GPGGA,090018.30,3629.20954355,N,13853.81336535,E,1,05,2.87,160.00,M,-21.3213,M,,*7A
$GPGGA,090018.35,3629.21009264,N,13853.81269976,E,1,05,2.87,160.00,M,-21.3213,M,,*7C
$GPGGA,090018.40,3629.21064134,N,13853.81203342,E,1,05,2.87,160.00,M,-21.3213,M,,*72
$GPGGA,090018.45,3629.21118973,N,13853.81136653,E,1,05,2.87,160.00,M,-21.3213,M,,*76
$GPGGA,090018.50,3629.21166045,N,13853.81079352,E,1,05,2.87,160.00,M,-21.3213,M,,*79
$GPGGA,090018.55,3629.21220838,N,13853.81012609,E,1,05,2.87,160.00,M,-21.3213,M,,*79
$GPGGA,090018.60,3629.21275613,N,13853.80945863,E,1,05,2.87,160.00,M,-21.3213,M,,*70
$GPGGA,090018.65,3629.21330374,N,13853.80879131,E,1,05,2.87,160.00,M,-21.3213,M,,*71
$GPGGA,090018.70,3629.21385125,N,13853.80812430,E,1,05,2.87,160.00,M,-21.3213,M,,*74
$GPGGA,090018.75,3629.21439871,N,13853.80745779,E,1,05,2.87,160.00,M,-21.3213,M,,*7A
$GPGGA,090018.80,3629.21486882,N,13853.80688611,E,1,05,2.87,160.00,M,-21.3213,M,,*77
$GPGGA,090018.85,3629.21541679,N,13853.80622169,E,1,05,2.87,160.00,M,-21.3213,M,,*7A
$GPGGA,090018.90,3629.21596588,N,13853.80555958,E,1,05,2.87,160.00,M,-21.3213,M,,*70
$GPGGA,090018.95,3629.21651672,N,13853.80490070,E,1,05,2.87,160.00,M,-21.3213,M,,*70
$GPGGA,090019.00,3629.21707002,N,13853.80424600,E,1,05,2.87,160.00,M,-21.3213,M,,*70
$GPGGA,090019.05,3629.21762652,N,13853.80359653,E,1,05,2.87,160.00,M,-21.3213,M,,*7E
$GPGGA,090019.10,3629.21818706,N,13853.80295341,E,1,05,2.87,160.00,M,-21.3213,M,,*7F
$GPGGA,090019.15,3629.21875234,N,13853.80231755,E,1,05,2.87,160.00,M,-21.3213,M,,*7A
$GPGGA,090019.20,3629.21924112,N,13853.80177717,E,1,05,2.87,160.00,M,-21.3213,M,,*79
$GPGGA,090019.25,3629.21981427,N,13853.80115304,E,1,05,2.87,160.00,M,-21.3213,M,,*72
$GPGGA,090019.30,3629.22039093,N,13853.80053400,E,1,05,2.87,160.00,M,-21.3213,M,,*74
$GPGGA,090019.35,3629.22097066,N,13853.79991937,E,1,05,2.87,160.00,M,-21.3213,M,,*77
$GPGGA,090019.40,3629.22155307,N,13853.79930857,E,1,05,2.87,160.00,M,-21.3213,M,,*72
$GPGGA,090019.45,3629.22213784,N,13853.79870108,E,1,05,2.87,160.00,M,-21.3213,M,,*7F
$GPGGA,090019.50,3629.22272468,N,13853.79809649,E,1,05,2.87,160.00,M,-21.3213,M,,*71
$GPGGA,090019.55,3629.22331332,N,13853.79749442,E,1,05,2.87,160.00,M,-21.3213,M,,*78
$GPGGA,090019.60,3629.22390356,N,13853.79689456,E,1,05,2.87,160.00,M,-21.3213,M,,*7F
$GPGGA,090019.65,3629.22441013,N,13853.79638242,E,1,05,2.87,160.00,M,-21.3213,M,,*7A
$GPGGA,090019.70,3629.22500284,N,13853.79578598,E,1,05,2.87,160.00,M,-21.3213,M,,*71
$GPGGA,090019.75,3629.22559665,N,13853.79519110,E,1,05,2.87,160.00,M,-21.3213,M,,*70
$GPGGA,090019.80,3629.22619146,N,13853.79459760,E,1,05,2.87,160.00,M,-21.3213,M,,*7F
$GPGGA,090019.85,3629.22678715,N,13853.79400536,E,1,05,2.87,160.00,M,-21.3213,M,,*70
$GPGGA,090019.90,3629.22738364,N,13853.79341426,E,1,05,2.87,160.00,M,-21.3213,M,,*71
$GPGGA,090019.95,3629.22798087,N,13853.79282422,E,1,05,2.87,160.00,M,-21.3213,M,,*7A
$GPGGA,090020.00,3629.22857877,N,13853.79223518,E,1,05,2.87,160.00,M,-21.3213,M,,*74
$GPGGA,090020.05,3629.22909249,N,13853.79173032,E,1,05,2.87,160.00,M,-21.3213,M,,*77
$GPGGA,090020.10,3629.22969154,N,13853.79114303,E,1,05,2.87,160.00,M,-21.3213,M,,*7A
$GPGGA,090020.15,3629.23029118,N,13853.79055665,E,1,05,2.87,160.00,M,-21.3213,M,,*7A
$GPGGA,090020.20,3629.23089140,N,13853.78997121,E,1,05,2.87,160.00,M,-21.3213,M,,*7A
$GPGGA,090020.25,3629.23149220,N,13853.78938673,E,1,05,2.87,160.00,M,-21.3213,M,,*72
$GPGGA,090020.30,3629.23209361,N,13853.78880326,E,1,05,2.87,160.00,M,-21.3213,M,,*72
$GPGGA,090020.35,3629.23269564,N,13853.78822087,E,1,05,2.87,160.00,M,-21.3213,M,,*72
$GPGGA,090020.40,3629.23329833,N,13853.78763965,E,1,05,2.87,160.00,M,-21.3213,M,,*75
$GPGGA,090020.45,3629.23390176,N,13853.78705970,E,1,05,2.87,160.00,M,-21.3213,M,,*7E
$GPGGA,090020.50,3629.23442033,N,13853.78656304,E,1,05,2.87,160.00,M,-21.3213,M,,*7C
$GPGGA,090020.55,3629.23502529,N,13853.78598588,E,1,05,2.87,160.00,M,-21.3213,M,,*71
$GPGGA,090020.60,3629.23563122,N,13853.78541047,E,1,05,2.87,160.00,M,-21.3213,M,,*7D
$GPGGA,090020.65,3629.23623825,N,13853.78483704,E,1,05,2.87,160.00,M,-21.3213,M,,*7E
$GPGGA,090020.70,3629.23684651,N,13853.78426586,E,1,05,2.87,160.00,M,-21.3213,M,,*7D
$GPGGA,090020.75,3629.23745617,N,13853.78369721,E,1,05,2.87,160.00,M,-21.3213,M,,*75
$GPGGA,090020.80,3629.23806720,N,13853.78313108,E,1,05,2.87,160.00,M,-21.3213,M,,*72
$GPGGA,090020.85,3629.23867951,N,13853.78256731,E,1,05,2.87,160.00,M,-21.3213,M,,*74
$GPGGA,090020.90,3629.23920597,N,13853.78208525,E,1,05,2.87,160.00,M,-21.3213,M,,*78
$GPGGA,090020.95,3629.23982041,N,13853.78152562,E,1,05,2.87,160.00,M,-21.3213,M,,*74
$GPGGA,090021.00,3629.24043594,N,13853.78096814,E,1,05,2.87,160.00,M,-21.3213,M,,*72
$GPGGA,090021.05,3629.24105253,N,13853.78041284,E,1,05,2.87,160.00,M,-21.3213,M,,*71
$GPGGA,090021.10,3629.24167018,N,13853.77985977,E,1,05,2.87,160.00,M,-21.3213,M,,*75
$GPGGA,090021.15,3629.24228891,N,13853.77930903,E,1,05,2.87,160.00,M,-21.3213,M,,*7C
$GPGGA,090021.20,3629.24290877,N,13853.77876078,E,1,05,2.87,160.00,M,-21.3213,M,,*77
$GPGGA,090021.25,3629.24352981,N,13853.77821520,E,1,05,2.87,160.00,M,-21.3213,M,,*7F
$GPGGA,090021.30,3629.24415241,N,13853.77767232,E,1,05,2.87,160.00,M,-21.3213,M,,*71
$GPGGA,090021.35,3629.24477765,N,13853.77713162,E,1,05,2.87,160.00,M,-21.3213,M,,*76
$GPGGA,090021.40,3629.24531790,N,13853.77666838,E,1,05,2.87,160.00,M,-21.3213,M,,*78
$GPGGA,090021.45,3629.24595195,N,13853.77612990,E,1,05,2.87,160.00,M,-21.3213,M,,*70
$GPGGA,090021.50,3629.24659253,N,13853.77559220,E,1,05,2.87,160.00,M,-21.3213,M,,*72
$GPGGA,090021.55,3629.24715127,N,13853.77512901,E,1,05,2.87,160.00,M,-21.3213,M,,*79
$GPGGA,090021.60,3629.24780890,N,13853.77459161,E,1,05,2.87,160.00,M,-21.3213,M,,*76
$GPGGA,090021.65,3629.24838695,N,13853.77412701,E,1,05,2.87,160.00,M,-21.3213,M,,*7B
$GPGGA,090021.70,3629.24897681,N,13853.77366130,E,1,05,2.87,160.00,M,-21.3213,M,,*7F
$GPGGA,090021.75,3629.24957992,N,13853.77319437,E,1,05,2.87,160.00,M,-21.3213,M,,*70
$GPGGA,090021.80,3629.25010514,N,13853.77279517,E,1,05,2.87,160.00,M,-21.3213,M,,*77
$GPGGA,090021.85,3629.25073616,N,13853.77232454,E,1,05,2.87,160.00,M,-21.3213,M,,*7F
$GPGGA,090021.90,3629.25128825,N,13853.77192080,E,1,05,2.87,160.00,M,-21.3213,M,,*7E
$GPGGA,090021.95,3629.25185248,N,13853.77151601,E,1,05,2.87,160.00,M,-21.3213,M,,*7D
$GPGGA,090022.00,3629.25233418,N,13853.77117686,E,1,05,2.87,160.00,M,-21.3213,M,,*72
$GPGGA,090022.05,3629.25291918,N,13853.77077325,E,1,05,2.87,160.00,M,-21.3213,M,,*79
$GPGGA,090022.10,3629.25341881,N,13853.77043605,E,1,05,2.87,160.00,M,-21.3213,M,,*70
$GPGGA,090022.15,3629.25392568,N,13853.77010143,E,1,05,2.87,160.00,M,-21.3213,M,,*72
$GPGGA,090022.20,3629.25453406,N,13853.76971036,E,1,05,2.87,160.00,M,-21.3213,M,,*7B
$GPGGA,090022.25,3629.25505284,N,13853.76938667,E,1,05,2.87,160.00,M,-21.3213,M,,*7F
$GPGGA,090022.30,3629.25557588,N,13853.76907010,E,1,05,2.87,160.00,M,-21.3213,M,,*7D
$GPGGA,090022.35,3629.25602363,N,13853.76880747,E,1,05,2.87,160.00,M,-21.3213,M,,*73
$GPGGA,090022.40,3629.25655227,N,13853.76850783,E,1,05,2.87,160.00,M,-21.3213,M,,*77
$GPGGA,090022.45,3629.25708337,N,13853.76821796,E,1,05,2.87,160.00,M,-21.3213,M,,*79
$GPGGA,090022.50,3629.25761577,N,13853.76793845,E,1,05,2.87,160.00,M,-21.3213,M,,*77
$GPGGA,090022.55,3629.25815158,N,13853.76766826,E,1,05,2.87,160.00,M,-21.3213,M,,*78
$GPGGA,090022.60,3629.25868970,N,13853.76740822,E,1,05,2.87,160.00,M,-21.3213,M,,*76
$GPGGA,090022.65,3629.25923015,N,13853.76715869,E,1,05,2.87,160.00,M,-21.3213,M,,*78
$GPGGA,090022.70,3629.25987346,N,13853.76687737,E,1,05,2.87,160.00,M,-21.3213,M,,*79
$GPGGA,090022.75,3629.26041936,N,13853.76665259,E,1,05,2.87,160.00,M,-21.3213,M,,*70
$GPGGA,090022.80,3629.26062738,N,13853.76657044,E,1,05,2.87,160.00,M,-21.3213,M,,*74
$GPGGA,090022.85,3629.26117700,N,13853.76636276,E,1,05,2.87,160.00,M,-21.3213,M,,*7D
$GPGGA,090022.90,3629.26172918,N,13853.76616716,E,1,05,2.87,160.00,M,-21.3213,M,,*7C
$GPGGA,090022.95,3629.26228256,N,13853.76598360,E,1,05,2.87,160.00,M,-21.3213,M,,*74
$GPGGA,090023.00,3629.26283923,N,13853.76581106,E,1,05,2.87,160.00,M,-21.3213,M,,*7B
$GPGGA,090023.05,3629.26350136,N,13853.76562125,E,1,05,2.87,160.00,M,-21.3213,M,,*71
$GPGGA,090023.10,3629.26406215,N,13853.76547342,E,1,05,2.87,160.00,M,-21.3213,M,,*77
$GPGGA,090023.15,3629.26462458,N,13853.76533707,E,1,05,2.87,160.00,M,-21.3213,M,,*79
$GPGGA,090023.20,3629.26518856,N,13853.76521251,E,1,05,2.87,160.00,M,-21.3213,M,,*74
$GPGGA,090023.25,3629.26575402,N,13853.76510018,E,1,05,2.87,160.00,M,-21.3213,M,,*7A
$GPGGA,090023.30,3629.26632092,N,13853.76500065,E,1,05,2.87,160.00,M,-21.3213,M,,*78
$GPGGA,090023.35,3629.26699462,N,13853.76490032,E,1,05,2.87,160.00,M,-21.3213,M,,*7D
$GPGGA,090023.40,3629.26736576,N,13853.76485381,E,1,05,2.87,160.00,M,-21.3213,M,,*70
$GPGGA,090023.45,3629.26793678,N,13853.76479463,E,1,05,2.87,160.00,M,-21.3213,M,,*7F
$GPGGA,090023.50,3629.26850812,N,13853.76474925,E,1,05,2.87,160.00,M,-21.3213,M,,*7B
$GPGGA,090023.55,3629.26907726,N,13853.76471651,E,1,05,2.87,160.00,M,-21.3213,M,,*7C
$GPGGA,090023.60,3629.26975154,N,13853.76469230,E,1,05,2.87,160.00,M,-21.3213,M,,*76
$GPGGA,090023.65,3629.27031582,N,13853.76468311,E,1,05,2.87,160.00,M,-21.3213,M,,*77
$GPGGA,090023.70,3629.27098148,N,13853.76468405,E,1,05,2.87,160.00,M,-21.3213,M,,*70
$GPGGA,090023.75,3629.27153397,N,13853.76469382,E,1,05,2.87,160.00,M,-21.3213,M,,*7A
$GPGGA,090023.80,3629.27218516,N,13853.76471503,E,1,05,2.87,160.00,M,-21.3213,M,,*75
$GPGGA,090023.85,3629.27282698,N,13853.76474557,E,1,05,2.87,160.00,M,-21.3213,M,,*72
$GPGGA,090023.90,3629.27345794,N,13853.76478443,E,1,05,2.87,160.00,M,-21.3213,M,,*79
$GPGGA,090023.95,3629.27418379,N,13853.76483951,E,1,05,2.87,160.00,M,-21.3213,M,,*7E
$GPGGA,090024.00,3629.27479028,N,13853.76489384,E,1,05,2.87,160.00,M,-21.3213,M,,*7D
$GPGGA,090024.05,3629.27549156,N,13853.76496581,E,1,05,2.87,160.00,M,-21.3213,M,,*7F
$GPGGA,090024.10,3629.27618165,N,13853.76504573,E,1,05,2.87,160.00,M,-21.3213,M,,*7B
$GPGGA,090024.15,3629.27696867,N,13853.76514740,E,1,05,2.87,160.00,M,-21.3213,M,,*70
$GPGGA,090024.20,3629.27763984,N,13853.76524270,E,1,05,2.87,160.00,M,-21.3213,M,,*74
$GPGGA,090024.25,3629.27841016,N,13853.76536172,E,1,05,2.87,160.00,M,-21.3213,M,,*7E
$GPGGA,090024.30,3629.27906704,N,13853.76547141,E,1,05,2.87,160.00,M,-21.3213,M,,*7A
$GPGGA,090024.35,3629.27982518,N,13853.76560766,E,1,05,2.87,160.00,M,-21.3213,M,,*7A
$GPGGA,090024.40,3629.28057885,N,13853.76575382,E,1,05,2.87,160.00,M,-21.3213,M,,*75
$GPGGA,090024.45,3629.28132919,N,13853.76591041,E,1,05,2.87,160.00,M,-21.3213,M,,*70
$GPGGA,090024.50,3629.28207744,N,13853.76607710,E,1,05,2.87,160.00,M,-21.3213,M,,*78
$GPGGA,090024.55,3629.28282455,N,13853.76625350,E,1,05,2.87,160.00,M,-21.3213,M,,*73
$GPGGA,090024.60,3629.28357060,N,13853.76643922,E,1,05,2.87,160.00,M,-21.3213,M,,*71
$GPGGA,090024.65,3629.28420985,N,13853.76660586,E,1,05,2.87,160.00,M,-21.3213,M,,*72
$GPGGA,090024.70,3629.28495355,N,13853.76680845,E,1,05,2.87,160.00,M,-21.3213,M,,*73
$GPGGA,090024.75,3629.28569574,N,13853.76702019,E,1,05,2.87,160.00,M,-21.3213,M,,*7B
$GPGGA,090024.80,3629.28643621,N,13853.76724136,E,1,05,2.87,160.00,M,-21.3213,M,,*71
$GPGGA,090024.85,3629.28717474,N,13853.76747246,E,1,05,2.87,160.00,M,-21.3213,M,,*77
$GPGGA,090024.90,3629.28791108,N,13853.76771415,E,1,05,2.87,160.00,M,-21.3213,M,,*76
$GPGGA,090024.95,3629.28864507,N,13853.76796686,E,1,05,2.87,160.00,M,-21.3213,M,,*7C
$GPGGA,090025.00,3629.28937698,N,13853.76822949,E,1,05,2.87,160.00,M,-21.3213,M,,*7F
$GPGGA,090025.05,3629.29010709,N,13853.76850076,E,1,05,2.87,160.00,M,-21.3213,M,,*7E
$GPGGA,090025.10,3629.29083562,N,13853.76877955,E,1,05,2.87,160.00,M,-21.3213,M,,*72
$GPGGA,090025.15,3629.29145976,N,13853.76902406,E,1,05,2.87,160.00,M,-21.3213,M,,*7D
$GPGGA,090025.20,3629.29218579,N,13853.76931430,E,1,05,2.87,160.00,M,-21.3213,M,,*76
$GPGGA,090025.25,3629.29291061,N,13853.76960958,E,1,05,2.87,160.00,M,-21.3213,M,,*79
$GPGGA,090025.30,3629.29363428,N,13853.76990924,E,1,05,2.87,160.00,M,-21.3213,M,,*7C
$GPGGA,090025.35,3629.29435680,N,13853.77021308,E,1,05,2.87,160.00,M,-21.3213,M,,*7B
$GPGGA,090025.40,3629.29507810,N,13853.77052128,E,1,05,2.87,160.00,M,-21.3213,M,,*7A
$GPGGA,090025.45,3629.29579811,N,13853.77083408,E,1,05,2.87,160.00,M,-21.3213,M,,*7C
$GPGGA,090025.50,3629.29651815,N,13853.77115244,E,1,05,2.87,160.00,M,-21.3213,M,,*75
$GPGGA,090025.55,3629.29713386,N,13853.77142898,E,1,05,2.87,160.00,M,-21.3213,M,,*7F
$GPGGA,090025.60,3629.29785017,N,13853.77175514,E,1,05,2.87,160.00,M,-21.3213,M,,*70
$GPGGA,090025.65,3629.29856549,N,13853.77208509,E,1,05,2.87,160.00,M,-21.3213,M,,*7F
$GPGGA,090025.70,3629.29927995,N,13853.77241839,E,1,05,2.87,160.00,M,-21.3213,M,,*72
$GPGGA,090025.75,3629.29999368,N,13853.77275470,E,1,05,2.87,160.00,M,-21.3213,M,,*7C
$GPGGA,090025.80,3629.30070679,N,13853.77309371,E,1,05,2.87,160.00,M,-21.3213,M,,*79
$GPGGA,090025.85,3629.30141935,N,13853.77343515,E,1,05,2.87,160.00,M,-21.3213,M,,*72
$GPGGA,090025.90,3629.30213144,N,13853.77377875,E,1,05,2.87,160.00,M,-21.3213,M,,*70
$GPGGA,090025.95,3629.30284310,N,13853.77412426,E,1,05,2.87,160.00,M,-21.3213,M,,*76
$GPGGA,090026.00,3629.30345367,N,13853.77442221,E,1,05,2.87,160.00,M,-21.3213,M,,*71
$GPGGA,090026.05,3629.30416461,N,13853.77477070,E,1,05,2.87,160.00,M,-21.3213,M,,*74
$GPGGA,090026.10,3629.30487518,N,13853.77512056,E,1,05,2.87,160.00,M,-21.3213,M,,*71
$GPGGA,090026.15,3629.30558540,N,13853.77547165,E,1,05,2.87,160.00,M,-21.3213,M,,*7B
$GPGGA,090026.20,3629.30629526,N,13853.77582386,E,1,05,2.87,160.00,M,-21.3213,M,,*7E
$GPGGA,090026.25,3629.30700477,N,13853.77617711,E,1,05,2.87,160.00,M,-21.3213,M,,*71
$GPGGA,090026.30,3629.30771392,N,13853.77653133,E,1,05,2.87,160.00,M,-21.3213,M,,*79
$GPGGA,090026.35,3629.30842267,N,13853.77688648,E,1,05,2.87,160.00,M,-21.3213,M,,*75
$GPGGA,090026.40,3629.30903074,N,13853.77719205,E,1,05,2.87,160.00,M,-21.3213,M,,*77
$GPGGA,090026.45,3629.30973869,N,13853.77754886,E,1,05,2.87,160.00,M,-21.3213,M,,*79
$GPGGA,090026.50,3629.31044615,N,13853.77790656,E,1,05,2.87,160.00,M,-21.3213,M,,*7F
$GPGGA,090026.55,3629.31115306,N,13853.77826519,E,1,05,2.87,160.00,M,-21.3213,M,,*72
$GPGGA,090026.60,3629.31185936,N,13853.77862478,E,1,05,2.87,160.00,M,-21.3213,M,,*72
$GPGGA,090026.65,3629.31256499,N,13853.77898540,E,1,05,2.87,160.00,M,-21.3213,M,,*7D
$GPGGA,090026.70,3629.31326984,N,13853.77934713,E,1,05,2.87,160.00,M,-21.3213,M,,*7D
$GPGGA,090026.75,3629.31397381,N,13853.77971007,E,1,05,2.87,160.00,M,-21.3213,M,,*7E
$GPGGA,090026.80,3629.31457715,N,13853.78002260,E,1,05,2.87,160.00,M,-21.3213,M,,*77
$GPGGA,090026.85,3629.31527912,N,13853.78038815,E,1,05,2.87,160.00,M,-21.3213,M,,*7C
$GPGGA,090026.90,3629.31597981,N,13853.78075536,E,1,05,2.87,160.00,M,-21.3213,M,,*7C
$GPGGA,090026.95,3629.31667904,N,13853.78112444,E,1,05,2.87,160.00,M,-21.3213,M,,*7C
$GPGGA,090027.00,3629.31737660,N,13853.78149564,E,1,05,2.87,160.00,M,-21.3213,M,,*75
$GPGGA,090027.05,3629.31807236,N,13853.78186899,E,1,05,2.87,160.00,M,-21.3213,M,,*77
$GPGGA,090027.10,3629.31876627,N,13853.78224430,E,1,05,2.87,160.00,M,-21.3213,M,,*75
$GPGGA,090027.15,3629.31945823,N,13853.78262139,E,1,05,2.87,160.00,M,-21.3213,M,,*75
$GPGGA,090027.20,3629.32014813,N,13853.78300014,E,1,05,2.87,160.00,M,-21.3213,M,,*75
$GPGGA,090027.25,3629.32083587,N,13853.78338046,E,1,05,2.87,160.00,M,-21.3213,M,,*72
$GPGGA,090027.30,3629.32152204,N,13853.78376273,E,1,05,2.87,160.00,M,-21.3213,M,,*79
$GPGGA,090027.35,3629.32220757,N,13853.78414759,E,1,05,2.87,160.00,M,-21.3213,M,,*77
$GPGGA,090027.40,3629.32289336,N,13853.78453572,E,1,05,2.87,160.00,M,-21.3213,M,,*7D
$GPGGA,090027.45,3629.32358022,N,13853.78492786,E,1,05,2.87,160.00,M,-21.3213,M,,*77
$GPGGA,090027.50,3629.32417243,N,13853.78526895,E,1,05,2.87,160.00,M,-21.3213,M,,*79
$GPGGA,090027.55,3629.32486403,N,13853.78567118,E,1,05,2.87,160.00,M,-21.3213,M,,*7F
$GPGGA,090027.60,3629.32546311,N,13853.78602337,E,1,05,2.87,160.00,M,-21.3213,M,,*7F
$GPGGA,090027.65,3629.32616191,N,13853.78643922,E,1,05,2.87,160.00,M,-21.3213,M,,*7D
$GPGGA,090027.70,3629.32677017,N,13853.78680620,E,1,05,2.87,160.00,M,-21.3213,M,,*73
$GPGGA,090027.75,3629.32738387,N,13853.78718189,E,1,05,2.87,160.00,M,-21.3213,M,,*72
$GPGGA,090027.80,3629.32800253,N,13853.78756696,E,1,05,2.87,160.00,M,-21.3213,M,,*77
$GPGGA,090027.85,3629.32853273,N,13853.78790280,E,1,05,2.87,160.00,M,-21.3213,M,,*7F
$GPGGA,090027.90,3629.32915900,N,13853.78830751,E,1,05,2.87,160.00,M,-21.3213,M,,*7B
$GPGGA,090027.95,3629.32969634,N,13853.78866279,E,1,05,2.87,160.00,M,-21.3213,M,,*71
$GPGGA,090028.00,3629.33023602,N,13853.78902830,E,1,05,2.87,160.00,M,-21.3213,M,,*75
$GPGGA,090028.05,3629.33077674,N,13853.78940473,E,1,05,2.87,160.00,M,-21.3213,M,,*7D
$GPGGA,090028.10,3629.33123022,N,13853.78972960,E,1,05,2.87,160.00,M,-21.3213,M,,*72
$GPGGA,090028.15,3629.33177011,N,13853.79012920,E,1,05,2.87,160.00,M,-21.3213,M,,*7C
$GPGGA,090028.20,3629.33222266,N,13853.79047679,E,1,05,2.87,160.00,M,-21.3213,M,,*78
$GPGGA,090028.25,3629.33267328,N,13853.79083648,E,1,05,2.87,160.00,M,-21.3213,M,,*7D
$GPGGA,090028.30,3629.33312038,N,13853.79120925,E,1,05,2.87,160.00,M,-21.3213,M,,*74
$GPGGA,090028.35,3629.33356217,N,13853.79159631,E,1,05,2.87,160.00,M,-21.3213,M,,*7A
$GPGGA,090028.40,3629.33399666,N,13853.79199906,E,1,05,2.87,160.00,M,-21.3213,M,,*7E
$GPGGA,090028.45,3629.33434896,N,13853.79234532,E,1,05,2.87,160.00,M,-21.3213,M,,*75
$GPGGA,090028.50,3629.33469517,N,13853.79270648,E,1,05,2.87,160.00,M,-21.3213,M,,*73
$GPGGA,090028.55,3629.33510100,N,13853.79316072,E,1,05,2.87,160.00,M,-21.3213,M,,*75
$GPGGA,090028.60,3629.33542771,N,13853.79355456,E,1,05,2.87,160.00,M,-21.3213,M,,*71
$GPGGA,090028.65,3629.33568276,N,13853.79388269,E,1,05,2.87,160.00,M,-21.3213,M,,*74
$GPGGA,090028.70,3629.33598942,N,13853.79430615,E,1,05,2.87,160.00,M,-21.3213,M,,*78
$GPGGA,090028.75,3629.33628145,N,13853.79474585,E,1,05,2.87,160.00,M,-21.3213,M,,*70
$GPGGA,090028.80,3629.33650652,N,13853.79511606,E,1,05,2.87,160.00,M,-21.3213,M,,*7E
$GPGGA,090028.85,3629.33672012,N,13853.79550057,E,1,05,2.87,160.00,M,-21.3213,M,,*7E
$GPGGA,090028.90,3629.33692020,N,13853.79590034,E,1,05,2.87,160.00,M,-21.3213,M,,*7C
$GPGGA,090028.95,3629.33710469,N,13853.79631600,E,1,05,2.87,160.00,M,-21.3213,M,,*72
$GPGGA,090029.00,3629.33723807,N,13853.79665581,E,1,05,2.87,160.00,M,-21.3213,M,,*70
$GPGGA,090029.05,3629.33738969,N,13853.79710263,E,1,05,2.87,160.00,M,-21.3213,M,,*7E
$GPGGA,090029.10,3629.33749481,N,13853.79747212,E,1,05,2.87,160.00,M,-21.3213,M,,*73
$GPGGA,090029.15,3629.33758512,N,13853.79785549,E,1,05,2.87,160.00,M,-21.3213,M,,*7A
$GPGGA,090029.20,3629.33764334,N,13853.79815871,E,1,05,2.87,160.00,M,-21.3213,M,,*71
$GPGGA,090029.25,3629.33770369,N,13853.79856836,E,1,05,2.87,160.00,M,-21.3213,M,,*7D
$GPGGA,090029.30,3629.33773649,N,13853.79889306,E,1,05,2.87,160.00,M,-21.3213,M,,*77
$GPGGA,090029.35,3629.33775612,N,13853.79922567,E,1,05,2.87,160.00,M,-21.3213,M,,*7B
$GPGGA,090029.40,3629.33776140,N,13853.79956414,E,1,05,2.87,160.00,M,-21.3213,M,,*7C
$GPGGA,090029.45,3629.33775567,N,13853.79981295,E,1,05,2.87,160.00,M,-21.3213,M,,*7E
$GPGGA,090029.50,3629.33773407,N,13853.80015726,E,1,05,2.87,160.00,M,-21.3213,M,,*74
$GPGGA,090029.55,3629.33770784,N,13853.80040926,E,1,05,2.87,160.00,M,-21.3213,M,,*74
$GPGGA,090029.60,3629.33765744,N,13853.80075080,E,1,05,2.87,160.00,M,-21.3213,M,,*79
$GPGGA,090029.65,3629.33761325,N,13853.80098128,E,1,05,2.87,160.00,M,-21.3213,M,,*7B
$GPGGA,090029.70,3629.33755710,N,13853.80122484,E,1,05,2.87,160.00,M,-21.3213,M,,*79
$GPGGA,090029.75,3629.33746688,N,13853.80154904,E,1,05,2.87,160.00,M,-21.3213,M,,*7A
$GPGGA,090029.80,3629.33739200,N,13853.80177832,E,1,05,2.87,160.00,M,-21.3213,M,,*79
$GPGGA,090029.85,3629.33727687,N,13853.80208462,E,1,05,2.87,160.00,M,-21.3213,M,,*7A
$GPGGA,090029.90,3629.33714739,N,13853.80238224,E,1,05,2.87,160.00,M,-21.3213,M,,*7D
$GPGGA,090029.95,3629.33704398,N,13853.80259360,E,1,05,2.87,160.00,M,-21.3213,M,,*70
$GPGGA,090030.00,3629.33688948,N,13853.80287607,E,1,05,2.87,160.00,M,-21.3213,M,,*71
$GPGGA,090030.05,3629.33672058,N,13853.80314873,E,1,05,2.87,160.00,M,-21.3213,M,,*7F
$GPGGA,090030.10,3629.33662800,N,13853.80328484,E,1,05,2.87,160.00,M,-21.3213,M,,*74
$GPGGA,090030.15,3629.33648969,N,13853.80347346,E,1,05,2.87,160.00,M,-21.3213,M,,*77
$GPGGA,090030.20,3629.33628901,N,13853.80372080,E,1,05,2.87,160.00,M,-21.3213,M,,*76
$GPGGA,090030.25,3629.33613532,N,13853.80389261,E,1,05,2.87,160.00,M,-21.3213,M,,*7E
$GPGGA,090030.30,3629.33591574,N,13853.80411572,E,1,05,2.87,160.00,M,-21.3213,M,,*72
$GPGGA,090030.35,3629.33568763,N,13853.80432373,E,1,05,2.87,160.00,M,-21.3213,M,,*73
$GPGGA,090030.40,3629.33545283,N,13853.80451604,E,1,05,2.87,160.00,M,-21.3213,M,,*75
$GPGGA,090030.45,3629.33521335,N,13853.80469256,E,1,05,2.87,160.00,M,-21.3213,M,,*76
$GPGGA,090030.50,3629.33497123,N,13853.80485345,E,1,05,2.87,160.00,M,-21.3213,M,,*7A
$GPGGA,090030.55,3629.33472853,N,13853.80499899,E,1,05,2.87,160.00,M,-21.3213,M,,*7D
$GPGGA,090030.60,3629.33441138,N,13853.80516794,E,1,05,2.87,160.00,M,-21.3213,M,,*7B
$GPGGA,090030.65,3629.33417157,N,13853.80528102,E,1,05,2.87,160.00,M,-21.3213,M,,*70
$GPGGA,090030.70,3629.33385620,N,13853.80541209,E,1,05,2.87,160.00,M,-21.3213,M,,*78
$GPGGA,090030.75,3629.33346016,N,13853.80555037,E,1,05,2.87,160.00,M,-21.3213,M,,*7B
$GPGGA,090030.80,3629.33314678,N,13853.80564089,E,1,05,2.87,160.00,M,-21.3213,M,,*7F
$GPGGA,090030.85,3629.33275131,N,13853.80573362,E,1,05,2.87,160.00,M,-21.3213,M,,*76
$GPGGA,090030.90,3629.33235710,N,13853.80580394,E,1,05,2.87,160.00,M,-21.3213,M,,*76
$GPGGA,090030.95,3629.33196529,N,13853.80585330,E,1,05,2.87,160.00,M,-21.3213,M,,*7A
$GPGGA,090031.00,3629.33157690,N,13853.80588297,E,1,05,2.87,160.00,M,-21.3213,M,,*7A
$GPGGA,090031.05,3629.33119278,N,13853.80589410,E,1,05,2.87,160.00,M,-21.3213,M,,*7F
$GPGGA,090031.10,3629.33072217,N,13853.80588444,E,1,05,2.87,160.00,M,-21.3213,M,,*7E
$GPGGA,090031.15,3629.33025562,N,13853.80585125,E,1,05,2.87,160.00,M,-21.3213,M,,*73
$GPGGA,090031.20,3629.32979415,N,13853.80579656,E,1,05,2.87,160.00,M,-21.3213,M,,*75
$GPGGA,090031.25,3629.32933866,N,13853.80572208,E,1,05,2.87,160.00,M,-21.3213,M,,*72
$GPGGA,090031.30,3629.32888998,N,13853.80562926,E,1,05,2.87,160.00,M,-21.3213,M,,*71
$GPGGA,090031.35,3629.32835478,N,13853.80549418,E,1,05,2.87,160.00,M,-21.3213,M,,*78
$GPGGA,090031.40,3629.32782663,N,13853.80533729,E,1,05,2.87,160.00,M,-21.3213,M,,*7D
$GPGGA,090031.45,3629.32730576,N,13853.80516180,E,1,05,2.87,160.00,M,-21.3213,M,,*74
$GPGGA,090031.50,3629.32679246,N,13853.80497048,E,1,05,2.87,160.00,M,-21.3213,M,,*75
$GPGGA,090031.55,3629.32628708,N,13853.80476573,E,1,05,2.87,160.00,M,-21.3213,M,,*79
$GPGGA,090031.60,3629.32569571,N,13853.80450710,E,1,05,2.87,160.00,M,-21.3213,M,,*76
$GPGGA,090031.65,3629.32520728,N,13853.80427904,E,1,05,2.87,160.00,M,-21.3213,M,,*7B
$GPGGA,090031.70,3629.32463383,N,13853.80399560,E,1,05,2.87,160.00,M,-21.3213,M,,*70
$GPGGA,090031.75,3629.32407007,N,13853.80370131,E,1,05,2.87,160.00,M,-21.3213,M,,*7F
$GPGGA,090031.80,3629.32351607,N,13853.80339842,E,1,05,2.87,160.00,M,-21.3213,M,,*77
$GPGGA,090031.85,3629.32287811,N,13853.80303485,E,1,05,2.87,160.00,M,-21.3213,M,,*7F
$GPGGA,090031.90,3629.32234358,N,13853.80271951,E,1,05,2.87,160.00,M,-21.3213,M,,*75
$GPGGA,090031.95,3629.32172525,N,13853.80234415,E,1,05,2.87,160.00,M,-21.3213,M,,*71
$GPGGA,090032.00,3629.32111677,N,13853.80196514,E,1,05,2.87,160.00,M,-21.3213,M,,*74
$GPGGA,090032.05,3629.32051792,N,13853.80158412,E,1,05,2.87,160.00,M,-21.3213,M,,*7B
$GPGGA,090032.10,3629.31992776,N,13853.80120202,E,1,05,2.87,160.00,M,-21.3213,M,,*78
$GPGGA,090032.15,3629.31925188,N,13853.80075767,E,1,05,2.87,160.00,M,-21.3213,M,,*71
$GPGGA,090032.20,3629.31858121,N,13853.80031095,E,1,05,2.87,160.00,M,-21.3213,M,,*75
$GPGGA,090032.25,3629.31801052,N,13853.79992721,E,1,05,2.87,160.00,M,-21.3213,M,,*77
$GPGGA,090032.30,3629.31735078,N,13853.79948047,E,1,05,2.87,160.00,M,-21.3213,M,,*73
$GPGGA,090032.35,3629.31669419,N,13853.79903351,E,1,05,2.87,160.00,M,-21.3213,M,,*76
$GPGGA,090032.40,3629.31603961,N,13853.79858658,E,1,05,2.87,160.00,M,-21.3213,M,,*79
$GPGGA,090032.45,3629.31538590,N,13853.79813984,E,1,05,2.87,160.00,M,-21.3213,M,,*74
$GPGGA,090032.50,3629.31473187,N,13853.79769341,E,1,05,2.87,160.00,M,-21.3213,M,,*7D
$GPGGA,090032.55,3629.31407654,N,13853.79724758,E,1,05,2.87,160.00,M,-21.3213,M,,*77
$GPGGA,090032.60,3629.31341966,N,13853.79680314,E,1,05,2.87,160.00,M,-21.3213,M,,*79
$GPGGA,090032.65,3629.31276112,N,13853.79636104,E,1,05,2.87,160.00,M,-21.3213,M,,*7C
$GPGGA,090032.70,3629.31210078,N,13853.79592226,E,1,05,2.87,160.00,M,-21.3213,M,,*7B
$GPGGA,090032.75,3629.31143844,N,13853.79548787,E,1,05,2.87,160.00,M,-21.3213,M,,*75
$GPGGA,090032.80,3629.31077385,N,13853.79505899,E,1,05,2.87,160.00,M,-21.3213,M,,*76
$GPGGA,090032.85,3629.31010672,N,13853.79463683,E,1,05,2.87,160.00,M,-21.3213,M,,*7B
$GPGGA,090032.90,3629.30943654,N,13853.79422265,E,1,05,2.87,160.00,M,-21.3213,M,,*7C
$GPGGA,090032.95,3629.30876197,N,13853.79381743,E,1,05,2.87,160.00,M,-21.3213,M,,*79
$GPGGA,090033.00,3629.30808121,N,13853.79342215,E,1,05,2.87,160.00,M,-21.3213,M,,*79
$GPGGA,090033.05,3629.30739245,N,13853.79303778,E,1,05,2.87,160.00,M,-21.3213,M,,*7B
$GPGGA,090033.10,3629.30669460,N,13853.79266442,E,1,05,2.87,160.00,M,-21.3213,M,,*72
$GPGGA,090033.15,3629.30598808,N,13853.79230295,E,1,05,2.87,160.00,M,-21.3213,M,,*77
$GPGGA,090033.20,3629.30537390,N,13853.79200252,E,1,05,2.87,160.00,M,-21.3213,M,,*76
$GPGGA,090033.25,3629.30465400,N,13853.79166736,E,1,05,2.87,160.00,M,-21.3213,M,,*7F
$GPGGA,090033.30,3629.30438923,N,13853.79154887,E,1,05,2.87,160.00,M,-21.3213,M,,*7B
$GPGGA,090033.35,3629.30376336,N,13853.79127913,E,1,05,2.87,160.00,M,-21.3213,M,,*75
$GPGGA,090033.40,3629.30303196,N,13853.79098142,E,1,05,2.87,160.00,M,-21.3213,M,,*74
$GPGGA,090033.45,3629.30229762,N,13853.79070043,E,1,05,2.87,160.00,M,-21.3213,M,,*73
$GPGGA,090033.50,3629.30166096,N,13853.79047086,E,1,05,2.87,160.00,M,-21.3213,M,,*7E
$GPGGA,090033.55,3629.30091806,N,13853.79021920,E,1,05,2.87,160.00,M,-21.3213,M,,*76
$GPGGA,090033.60,3629.30027564,N,13853.79001571,E,1,05,2.87,160.00,M,-21.3213,M,,*7E
$GPGGA,090033.65,3629.29952635,N,13853.78979534,E,1,05,2.87,160.00,M,-21.3213,M,,*79
$GPGGA,090033.70,3629.29877373,N,13853.78959312,E,1,05,2.87,160.00,M,-21.3213,M,,*7C
$GPGGA,090033.75,3629.29830468,N,13853.78947729,E,1,05,2.87,160.00,M,-21.3213,M,,*74
$GPGGA,090033.80,3629.29765212,N,13853.78932956,E,1,05,2.87,160.00,M,-21.3213,M,,*7E
$GPGGA,090033.85,3629.29689134,N,13853.78917614,E,1,05,2.87,160.00,M,-21.3213,M,,*71
$GPGGA,090033.90,3629.29612932,N,13853.78904181,E,1,05,2.87,160.00,M,-21.3213,M,,*70
$GPGGA,090033.95,3629.29547004,N,13853.78894078,E,1,05,2.87,160.00,M,-21.3213,M,,*75
$GPGGA,090034.00,3629.29523376,N,13853.78890797,E,1,05,2.87,160.00,M,-21.3213,M,,*78
$GPGGA,090034.05,3629.29457251,N,13853.78882556,E,1,05,2.87,160.00,M,-21.3213,M,,*77
$GPGGA,090034.10,3629.29380322,N,13853.78874665,E,1,05,2.87,160.00,M,-21.3213,M,,*71
$GPGGA,090034.15,3629.29303429,N,13853.78868557,E,1,05,2.87,160.00,M,-21.3213,M,,*7C
$GPGGA,090034.20,3629.29237032,N,13853.78864709,E,1,05,2.87,160.00,M,-21.3213,M,,*77
$GPGGA,090034.25,3629.29159898,N,13853.78861927,E,1,05,2.87,160.00,M,-21.3213,M,,*76
$GPGGA,090034.30,3629.29117026,N,13853.78861189,E,1,05,2.87,160.00,M,-21.3213,M,,*79
$GPGGA,090034.35,3629.29050620,N,13853.78861208,E,1,05,2.87,160.00,M,-21.3213,M,,*74
$GPGGA,090034.40,3629.28973547,N,13853.78862954,E,1,05,2.87,160.00,M,-21.3213,M,,*7C
$GPGGA,090034.45,3629.28896705,N,13853.78866494,E,1,05,2.87,160.00,M,-21.3213,M,,*72
$GPGGA,090034.50,3629.28830524,N,13853.78870980,E,1,05,2.87,160.00,M,-21.3213,M,,*74
$GPGGA,090034.55,3629.28769382,N,13853.78876325,E,1,05,2.87,160.00,M,-21.3213,M,,*7B
$GPGGA,090034.60,3629.28703466,N,13853.78883401,E,1,05,2.87,160.00,M,-21.3213,M,,*77
$GPGGA,090034.65,3629.28627093,N,13853.78893308,E,1,05,2.87,160.00,M,-21.3213,M,,*74
$GPGGA,090034.70,3629.28551095,N,13853.78905001,E,1,05,2.87,160.00,M,-21.3213,M,,*70
$GPGGA,090034.75,3629.28482739,N,13853.78917132,E,1,05,2.87,160.00,M,-21.3213,M,,*79
$GPGGA,090034.80,3629.28417627,N,13853.78930157,E,1,05,2.87,160.00,M,-21.3213,M,,*77
$GPGGA,090034.85,3629.28342254,N,13853.78947042,E,1,05,2.87,160.00,M,-21.3213,M,,*70
$GPGGA,090034.90,3629.28267351,N,13853.78965770,E,1,05,2.87,160.00,M,-21.3213,M,,*70
$GPGGA,090034.95,3629.28203061,N,13853.78983450,E,1,05,2.87,160.00,M,-21.3213,M,,*7E
$GPGGA,090035.00,3629.28168703,N,13853.78993536,E,1,05,2.87,160.00,M,-21.3213,M,,*7E
$GPGGA,090035.05,3629.28094534,N,13853.79016845,E,1,05,2.87,160.00,M,-21.3213,M,,*73
$GPGGA,090035.10,3629.28030902,N,13853.79038463,E,1,05,2.87,160.00,M,-21.3213,M,,*74
$GPGGA,090035.15,3629.27957227,N,13853.79065294,E,1,05,2.87,160.00,M,-21.3213,M,,*7C
$GPGGA,090035.20,3629.27893604,N,13853.79089989,E,1,05,2.87,160.00,M,-21.3213,M,,*73
